[{
		title: 'Harry Buffalo',
		location: {
			lat: 28.541346,
			lng: -81.381661
		},
		id: 0
	},
	{
		title: 'Omega Deli Restaurant',
		location: {
			lat: 28.546058,
			lng: -81.373764
		},
		id: 1
	},
	{
		title: 'Shari Sushi Lounge',
		location: {
			lat: 28.542288,
			lng: -81.369215
		},
		id: 2
	},
	{
		title: 'LE GOURMET BREAK',
		location: {
			lat: 28.540667,
			lng: -81.377412
		},
		id: 3
	},
	{
		title: "Chef Eddies Restaurant",
		location: {
			lat: 28.540324,
			lng: -81.387115
		},
		id: 4
	},
	{
		title: "Leo's Diner",
		location: {
			lat: 28.546354,
			lng: -81.378952
		},
		id: 5
	}
]
